{"features": [{"properties": {"adminCode1": "85", "fcode": "PPL", "lng": "41.3134", "toponymName": "Vasil\u2019yevskaya", "population": 0, "name": "Vasil'yevskaya", "lat": "60.21582", "fcodeName": "populated place", "fclName": "city, village,...", "countryName": "Russia", "adminName1": "Vologda", "countryId": "2017370", "fcl": "P", "geonameId": 469659, "countryCode": "RU"}, "geometry": {"coordinates": [41.3134, 60.21582], "type": "Point"}, "type": "Feature"}, {"properties": {"adminCode1": "21", "fcode": "PPL", "lng": "41.6628", "toponymName": "Vasil\u2019yevskoye", "population": 0, "name": "Vasil'yevskoye", "lat": "56.93139", "fcodeName": "populated place", "fclName": "city, village,...", "countryName": "Russia", "adminName1": "Ivanovo", "countryId": "2017370", "fcl": "P", "geonameId": 476526, "countryCode": "RU"}, "geometry": {"coordinates": [41.6628, 56.93139], "type": "Point"}, "type": "Feature"}, {"properties": {"adminCode1": "51", "fcode": "PPL", "lng": "45.69323", "toponymName": "Vasil\u2019yevka", "population": 0, "name": "Vasil'yevka", "lat": "55.25355", "fcodeName": "populated place", "fclName": "city, village,...", "countryName": "Russia", "adminName1": "Nizjnij Novgorod", "countryId": "2017370", "fcl": "P", "geonameId": 476636, "countryCode": "RU"}, "geometry": {"coordinates": [45.69323, 55.25355], "type": "Point"}, "type": "Feature"}, {"properties": {"adminCode1": "21", "fcode": "PPL", "lng": "41.40075", "toponymName": "Vasil\u2019chinino", "population": 0, "name": "Vasil'chinino", "lat": "57.21107", "fcodeName": "populated place", "fclName": "city, village,...", "countryName": "Russia", "adminName1": "Ivanovo", "countryId": "2017370", "fcl": "P", "geonameId": 476821, "countryCode": "RU"}, "geometry": {"coordinates": [41.40075, 57.21107], "type": "Point"}, "type": "Feature"}, {"properties": {"adminCode1": "85", "fcode": "PPL", "lng": "43.96786", "toponymName": "Vasil\u2019yevo", "population": 0, "name": "Vasil'yevo", "lat": "59.47564", "fcodeName": "populated place", "fclName": "city, village,...", "countryName": "Russia", "adminName1": "Vologda", "countryId": "2017370", "fcl": "P", "geonameId": 476601, "countryCode": "RU"}, "geometry": {"coordinates": [43.96786, 59.47564], "type": "Point"}, "type": "Feature"}, {"properties": {"adminCode1": "57", "fcode": "PPL", "lng": "44.69485", "toponymName": "Vasil\u2019yevka", "population": 0, "name": "Vasil'yevka", "lat": "53.2285", "fcodeName": "populated place", "fclName": "city, village,...", "countryName": "Russia", "adminName1": "Penza", "countryId": "2017370", "fcl": "P", "geonameId": 476665, "countryCode": "RU"}, "geometry": {"coordinates": [44.69485, 53.2285], "type": "Point"}, "type": "Feature"}, {"properties": {"adminCode1": "72", "fcode": "PPL", "lng": "41.03187", "toponymName": "Pokrovo-Vasil\u2019yevskoye", "population": 0, "name": "Pokrovo-Vasil'yevskoye", "lat": "53.40724", "fcodeName": "populated place", "fclName": "city, village,...", "countryName": "Russia", "adminName1": "Tambov", "countryId": "2017370", "fcl": "P", "geonameId": 507476, "countryCode": "RU"}, "geometry": {"coordinates": [41.03187, 53.40724], "type": "Point"}, "type": "Feature"}, {"properties": {"adminCode1": "45", "fcode": "PPL", "lng": "45.80574", "toponymName": "Vasil\u2019yevskoye", "population": 0, "name": "Vasil'yevskoye", "lat": "56.51751", "fcodeName": "populated place", "fclName": "city, village,...", "countryName": "Russia", "adminName1": "Mariy-El", "countryId": "2017370", "fcl": "P", "geonameId": 476528, "countryCode": "RU"}, "geometry": {"coordinates": [45.80574, 56.51751], "type": "Point"}, "type": "Feature"}, {"properties": {"adminCode1": "72", "fcode": "PPL", "lng": "43.01055", "toponymName": "Vasil\u2019yevka", "population": 0, "name": "Vasil'yevka", "lat": "52.84223", "fcodeName": "populated place", "fclName": "city, village,...", "countryName": "Russia", "adminName1": "Tambov", "countryId": "2017370", "fcl": "P", "geonameId": 476672, "countryCode": "RU"}, "geometry": {"coordinates": [43.01055, 52.84223], "type": "Point"}, "type": "Feature"}, {"properties": {"adminCode1": "51", "fcode": "PPL", "lng": "46.016", "toponymName": "Vasil\u2019sursk", "population": 0, "name": "Vasil'sursk", "lat": "56.13139", "fcodeName": "populated place", "fclName": "city, village,...", "countryName": "Russia", "adminName1": "Nizjnij Novgorod", "countryId": "2017370", "fcl": "P", "geonameId": 476732, "countryCode": "RU"}, "geometry": {"coordinates": [46.016, 56.13139], "type": "Point"}, "type": "Feature"}, {"properties": {"adminCode1": "85", "fcode": "PPL", "lng": "41.15101", "toponymName": "Vasil\u2019yevskaya", "population": 0, "name": "Vasil'yevskaya", "lat": "59.94975", "fcodeName": "populated place", "fclName": "city, village,...", "countryName": "Russia", "adminName1": "Vologda", "countryId": "2017370", "fcl": "P", "geonameId": 476580, "countryCode": "RU"}, "geometry": {"coordinates": [41.15101, 59.94975], "type": "Point"}, "type": "Feature"}, {"properties": {"adminCode1": "16", "fcode": "PPL", "lng": "46.8679", "toponymName": "Vasil\u2019yevka", "population": 0, "name": "Vasil\u2019yevka", "lat": "56.1549", "fcodeName": "populated place", "fclName": "city, village,...", "countryName": "Russia", "adminName1": "Chuvashia", "countryId": "2017370", "fcl": "P", "geonameId": 7604550, "countryCode": "RU"}, "geometry": {"coordinates": [46.8679, 56.1549], "type": "Point"}, "type": "Feature"}, {"properties": {"adminCode1": "51", "fcode": "PPL", "lng": "44.1344", "toponymName": "Vasil\u2019yevo", "population": 0, "name": "Vasil\u2019yevo", "lat": "57.0679", "fcodeName": "populated place", "fclName": "city, village,...", "countryName": "Russia", "adminName1": "Nizjnij Novgorod", "countryId": "2017370", "fcl": "P", "geonameId": 7608655, "countryCode": "RU"}, "geometry": {"coordinates": [44.1344, 57.0679], "type": "Point"}, "type": "Feature"}, {"properties": {"adminCode1": "46", "fcode": "PPL", "lng": "45.4899", "toponymName": "Vasil\u2019yevka", "population": 0, "name": "Vasil\u2019yevka", "lat": "54.5648", "fcodeName": "populated place", "fclName": "city, village,...", "countryName": "Russia", "adminName1": "Mordoviya", "countryId": "2017370", "fcl": "P", "geonameId": 7596387, "countryCode": "RU"}, "geometry": {"coordinates": [45.4899, 54.5648], "type": "Point"}, "type": "Feature"}, {"properties": {"adminCode1": "46", "fcode": "PPL", "lng": "45.3761", "toponymName": "Vasil\u2019yevka", "population": 0, "name": "Vasil\u2019yevka", "lat": "54.7696", "fcodeName": "populated place", "fclName": "city, village,...", "countryName": "Russia", "adminName1": "Mordoviya", "countryId": "2017370", "fcl": "P", "geonameId": 7596453, "countryCode": "RU"}, "geometry": {"coordinates": [45.3761, 54.7696], "type": "Point"}, "type": "Feature"}, {"properties": {"adminCode1": "37", "fcode": "PPL", "lng": "42.1267", "toponymName": "Vasil\u2019yevskoye", "population": 0, "name": "Vasil\u2019yevskoye", "lat": "58.4724", "fcodeName": "populated place", "fclName": "city, village,...", "countryName": "Russia", "adminName1": "Kostroma", "countryId": "2017370", "fcl": "P", "geonameId": 7460512, "countryCode": "RU"}, "geometry": {"coordinates": [42.1267, 58.4724], "type": "Point"}, "type": "Feature"}, {"properties": {"adminCode1": "37", "fcode": "PPL", "lng": "42.1466", "toponymName": "Vasil\u2019yevskoye", "population": 0, "name": "Vasil\u2019yevskoye", "lat": "58.3669", "fcodeName": "populated place", "fclName": "city, village,...", "countryName": "Russia", "adminName1": "Kostroma", "countryId": "2017370", "fcl": "P", "geonameId": 7460649, "countryCode": "RU"}, "geometry": {"coordinates": [42.1466, 58.3669], "type": "Point"}, "type": "Feature"}, {"properties": {"adminCode1": "37", "fcode": "PPL", "lng": "42.894", "toponymName": "Vasil\u2019yevka", "population": 0, "name": "Vasil\u2019yevka", "lat": "58.0864", "fcodeName": "populated place", "fclName": "city, village,...", "countryName": "Russia", "adminName1": "Kostroma", "countryId": "2017370", "fcl": "P", "geonameId": 7460900, "countryCode": "RU"}, "geometry": {"coordinates": [42.894, 58.0864], "type": "Point"}, "type": "Feature"}, {"properties": {"adminCode1": "37", "fcode": "PPL", "lng": "45.6482", "toponymName": "Vasil\u2019yevskoye", "population": 0, "name": "Vasil\u2019yevskoye", "lat": "58.091", "fcodeName": "populated place", "fclName": "city, village,...", "countryName": "Russia", "adminName1": "Kostroma", "countryId": "2017370", "fcl": "P", "geonameId": 7493562, "countryCode": "RU"}, "geometry": {"coordinates": [45.6482, 58.091], "type": "Point"}, "type": "Feature"}, {"properties": {"adminCode1": "37", "fcode": "PPL", "lng": "42.6357", "toponymName": "Vasil\u2019yevskoye", "population": 0, "name": "Vasil\u2019yevskoye", "lat": "58.8406", "fcodeName": "populated place", "fclName": "city, village,...", "countryName": "Russia", "adminName1": "Kostroma", "countryId": "2017370", "fcl": "P", "geonameId": 7460204, "countryCode": "RU"}, "geometry": {"coordinates": [42.6357, 58.8406], "type": "Point"}, "type": "Feature"}, {"properties": {"adminCode1": "85", "fcode": "PPL", "lng": "46.5453", "toponymName": "Vasil\u2019yevskaya", "population": 0, "name": "Vasil\u2019yevskaya", "lat": "60.0555", "fcodeName": "populated place", "fclName": "city, village,...", "countryName": "Russia", "adminName1": "Vologda", "countryId": "2017370", "fcl": "P", "geonameId": 7512877, "countryCode": "RU"}, "geometry": {"coordinates": [46.5453, 60.0555], "type": "Point"}, "type": "Feature"}, {"properties": {"adminCode1": "51", "fcode": "PPL", "lng": "44.72619", "toponymName": "Vasil\u00ebvka", "population": 0, "name": "Vasil\u00ebvka", "lat": "54.54802", "fcodeName": "populated place", "fclName": "city, village,...", "countryName": "Russia", "adminName1": "Nizjnij Novgorod", "countryId": "2017370", "fcl": "P", "geonameId": 476806, "countryCode": "RU"}, "geometry": {"coordinates": [44.72619, 54.54802], "type": "Point"}, "type": "Feature"}, {"properties": {"adminCode1": "51", "fcode": "PPL", "lng": "43.25135", "toponymName": "Chkalovsk", "population": 13577, "name": "Chkalovsk", "lat": "56.76776", "fcodeName": "populated place", "fclName": "city, village,...", "countryName": "Russia", "adminName1": "Nizjnij Novgorod", "countryId": "2017370", "fcl": "P", "geonameId": 567902, "countryCode": "RU"}, "geometry": {"coordinates": [43.25135, 56.76776], "type": "Point"}, "type": "Feature"}, {"properties": {"adminCode1": "46", "fcode": "PPL", "lng": "43.07778", "toponymName": "Lesnaya", "population": 0, "name": "Lesnaya", "lat": "54.3298", "fcodeName": "populated place", "fclName": "city, village,...", "countryName": "Russia", "adminName1": "Mordoviya", "countryId": "2017370", "fcl": "P", "geonameId": 535796, "countryCode": "RU"}, "geometry": {"coordinates": [43.07778, 54.3298], "type": "Point"}, "type": "Feature"}, {"properties": {"adminCode1": "81", "fcode": "PPL", "lng": "47.8228", "toponymName": "Orlovka", "population": 0, "name": "Orlovka", "lat": "54.6079", "fcodeName": "populated place", "fclName": "city, village,...", "countryName": "Russia", "adminName1": "Ulyanovsk", "countryId": "2017370", "fcl": "P", "geonameId": 514854, "countryCode": "RU"}, "geometry": {"coordinates": [47.8228, 54.6079], "type": "Point"}, "type": "Feature"}, {"properties": {"adminCode1": "37", "fcode": "PPL", "lng": "41.25413", "toponymName": "Vasilevo", "population": 0, "name": "Vasilevo", "lat": "58.01985", "fcodeName": "populated place", "fclName": "city, village,...", "countryName": "Russia", "adminName1": "Kostroma", "countryId": "2017370", "fcl": "P", "geonameId": 827908, "countryCode": "RU"}, "geometry": {"coordinates": [41.25413, 58.01985], "type": "Point"}, "type": "Feature"}, {"properties": {"adminCode1": "72", "fcode": "PPL", "lng": "40.494", "toponymName": "Khobotets-Vasil\u2019yevskiy", "population": 0, "name": "Khobotets-Vasil\u2019yevskiy", "lat": "53.2981", "fcodeName": "populated place", "fclName": "city, village,...", "countryName": "Russia", "adminName1": "Tambov", "countryId": "2017370", "fcl": "P", "geonameId": 549933, "countryCode": "RU"}, "geometry": {"coordinates": [40.494, 53.2981], "type": "Point"}, "type": "Feature"}, {"properties": {"adminCode1": "72", "fcode": "PPL", "lng": "42.22668", "toponymName": "Novoye Vasil\u2019yevo", "population": 0, "name": "Novoye Vasil\u2019yevo", "lat": "53.19682", "fcodeName": "populated place", "fclName": "city, village,...", "countryName": "Russia", "adminName1": "Tambov", "countryId": "2017370", "fcl": "P", "geonameId": 517353, "countryCode": "RU"}, "geometry": {"coordinates": [42.22668, 53.19682], "type": "Point"}, "type": "Feature"}, {"properties": {"adminCode1": "72", "fcode": "PPL", "lng": "40.1837", "toponymName": "Novaya Vasil\u2019yevka", "population": 0, "name": "Novaya Vasil\u2019yevka", "lat": "52.6895", "fcodeName": "populated place", "fclName": "city, village,...", "countryName": "Russia", "adminName1": "Tambov", "countryId": "2017370", "fcl": "P", "geonameId": 517734, "countryCode": "RU"}, "geometry": {"coordinates": [40.1837, 52.6895], "type": "Point"}, "type": "Feature"}, {"properties": {"adminCode1": "72", "fcode": "PPL", "lng": "40.1801", "toponymName": "Staraya Vasil\u2019yevka", "population": 0, "name": "Staraya Vasil\u2019yevka", "lat": "52.7177", "fcodeName": "populated place", "fclName": "city, village,...", "countryName": "Russia", "adminName1": "Tambov", "countryId": "2017370", "fcl": "P", "geonameId": 488591, "countryCode": "RU"}, "geometry": {"coordinates": [40.1801, 52.7177], "type": "Point"}, "type": "Feature"}, {"properties": {"adminCode1": "21", "fcode": "PPL", "lng": "40.39467", "toponymName": "Novovasilevo", "population": 0, "name": "Novovasilevo", "lat": "56.91555", "fcodeName": "populated place", "fclName": "city, village,...", "countryName": "Russia", "adminName1": "Ivanovo", "countryId": "2017370", "fcl": "P", "geonameId": 476724, "countryCode": "RU"}, "geometry": {"coordinates": [40.39467, 56.91555], "type": "Point"}, "type": "Feature"}, {"properties": {"adminCode1": "72", "fcode": "PPL", "lng": "42.24847", "toponymName": "Pokrovo-Vasil\u2019yevo", "population": 0, "name": "Pokrovo-Vasil\u2019yevo", "lat": "53.18546", "fcodeName": "populated place", "fclName": "city, village,...", "countryName": "Russia", "adminName1": "Tambov", "countryId": "2017370", "fcl": "P", "geonameId": 507477, "countryCode": "RU"}, "geometry": {"coordinates": [42.24847, 53.18546], "type": "Point"}, "type": "Feature"}, {"properties": {"adminCode1": "72", "fcode": "PPL", "lng": "40.4911", "toponymName": "Khobotets-Vasil\u2019yevskoye", "population": 0, "name": "Khobotets-Vasil\u2019yevskoye", "lat": "53.1844", "fcodeName": "populated place", "fclName": "city, village,...", "countryName": "Russia", "adminName1": "Tambov", "countryId": "2017370", "fcl": "P", "geonameId": 549938, "countryCode": "RU"}, "geometry": {"coordinates": [40.4911, 53.1844], "type": "Point"}, "type": "Feature"}, {"properties": {"adminCode1": "57", "fcode": "PPL", "lng": "44.48333", "toponymName": "Aleksandro-Vasil\u2019yevka", "population": 0, "name": "Aleksandro-Vasil\u2019yevka", "lat": "53.41667", "fcodeName": "populated place", "fclName": "city, village,...", "countryName": "Russia", "adminName1": "Penza", "countryId": "2017370", "fcl": "P", "geonameId": 583347, "countryCode": "RU"}, "geometry": {"coordinates": [44.48333, 53.41667], "type": "Point"}, "type": "Feature"}, {"properties": {"adminCode1": "33", "fcode": "PPL", "lng": "47.4472", "toponymName": "Vasil\u2019yevo Rameshko", "population": 0, "name": "Vasil\u2019yevo Rameshko", "lat": "60.2437", "fcodeName": "populated place", "fclName": "city, village,...", "countryName": "Russia", "adminName1": "Kirov", "countryId": "2017370", "fcl": "P", "geonameId": 7513354, "countryCode": "RU"}, "geometry": {"coordinates": [47.4472, 60.2437], "type": "Point"}, "type": "Feature"}, {"properties": {"adminCode1": "88", "fcode": "PPL", "lng": "40.29843", "toponymName": "Vasil\u2019yevskoye", "population": 0, "name": "Vasil\u2019yevskoye", "lat": "57.78406", "fcodeName": "populated place", "fclName": "city, village,...", "countryName": "Russia", "adminName1": "Jaroslavl", "countryId": "2017370", "fcl": "P", "geonameId": 501984, "countryCode": "RU"}, "geometry": {"coordinates": [40.29843, 57.78406], "type": "Point"}, "type": "Feature"}, {"properties": {"adminCode1": "37", "fcode": "PPL", "lng": "42.21667", "toponymName": "Vasil\u2019yevskaya", "population": 0, "name": "Vasil\u2019yevskaya", "lat": "58.78333", "fcodeName": "populated place", "fclName": "city, village,...", "countryName": "Russia", "adminName1": "Kostroma", "countryId": "2017370", "fcl": "P", "geonameId": 476582, "countryCode": "RU"}, "geometry": {"coordinates": [42.21667, 58.78333], "type": "Point"}, "type": "Feature"}, {"properties": {"adminCode1": "83", "fcode": "PPL", "lng": "40.56659", "toponymName": "Vasil\u2019kovo", "population": 0, "name": "Vasil\u2019kovo", "lat": "56.29775", "fcodeName": "populated place", "fclName": "city, village,...", "countryName": "Russia", "adminName1": "Vladimir", "countryId": "2017370", "fcl": "P", "geonameId": 476750, "countryCode": "RU"}, "geometry": {"coordinates": [40.56659, 56.29775], "type": "Point"}, "type": "Feature"}, {"properties": {"adminCode1": "16", "fcode": "PPL", "lng": "47.12626", "toponymName": "Vasil\u2019kasy", "population": 0, "name": "Vasil\u2019kasy", "lat": "56.04508", "fcodeName": "populated place", "fclName": "city, village,...", "countryName": "Russia", "adminName1": "Chuvashia", "countryId": "2017370", "fcl": "P", "geonameId": 476764, "countryCode": "RU"}, "geometry": {"coordinates": [47.12626, 56.04508], "type": "Point"}, "type": "Feature"}, {"properties": {"adminCode1": "37", "fcode": "PPL", "lng": "41.92028", "toponymName": "Vasil\u2019yevskoye", "population": 0, "name": "Vasil\u2019yevskoye", "lat": "58.75472", "fcodeName": "populated place", "fclName": "city, village,...", "countryName": "Russia", "adminName1": "Kostroma", "countryId": "2017370", "fcl": "P", "geonameId": 6609753, "countryCode": "RU"}, "geometry": {"coordinates": [41.92028, 58.75472], "type": "Point"}, "type": "Feature"}, {"properties": {"adminCode1": "83", "fcode": "PPL", "lng": "40.37537", "toponymName": "Vasil\u2019yevskiy", "population": 0, "name": "Vasil\u2019yevskiy", "lat": "55.69361", "fcodeName": "populated place", "fclName": "city, village,...", "countryName": "Russia", "adminName1": "Vladimir", "countryId": "2017370", "fcl": "P", "geonameId": 476553, "countryCode": "RU"}, "geometry": {"coordinates": [40.37537, 55.69361], "type": "Point"}, "type": "Feature"}, {"properties": {"adminCode1": "83", "fcode": "PPL", "lng": "41.6", "toponymName": "Vasil\u2019yevo", "population": 0, "name": "Vasil\u2019yevo", "lat": "55.95", "fcodeName": "populated place", "fclName": "city, village,...", "countryName": "Russia", "adminName1": "Vladimir", "countryId": "2017370", "fcl": "P", "geonameId": 476614, "countryCode": "RU"}, "geometry": {"coordinates": [41.6, 55.95], "type": "Point"}, "type": "Feature"}, {"properties": {"adminCode1": "16", "fcode": "PPL", "lng": "47.51212", "toponymName": "Vasil\u2019yevka", "population": 0, "name": "Vasil\u2019yevka", "lat": "55.30179", "fcodeName": "populated place", "fclName": "city, village,...", "countryName": "Russia", "adminName1": "Chuvashia", "countryId": "2017370", "fcl": "P", "geonameId": 476635, "countryCode": "RU"}, "geometry": {"coordinates": [47.51212, 55.30179], "type": "Point"}, "type": "Feature"}, {"properties": {"adminCode1": "57", "fcode": "PPL", "lng": "43.00552", "toponymName": "Vasil\u2019yevka", "population": 1, "name": "Vasil\u2019yevka", "lat": "53.54347", "fcodeName": "populated place", "fclName": "city, village,...", "countryName": "Russia", "adminName1": "Penza", "countryId": "2017370", "fcl": "P", "geonameId": 476655, "countryCode": "RU"}, "geometry": {"coordinates": [43.00552, 53.54347], "type": "Point"}, "type": "Feature"}, {"properties": {"adminCode1": "81", "fcode": "PPLQ", "lng": "47.41799", "toponymName": "Vasil\u2019yevka", "population": 0, "name": "Vasil\u2019yevka", "lat": "53.4822", "fcodeName": "abandoned populated place", "fclName": "city, village,...", "countryName": "Russia", "adminName1": "Ulyanovsk", "countryId": "2017370", "fcl": "P", "geonameId": 476657, "countryCode": "RU"}, "geometry": {"coordinates": [47.41799, 53.4822], "type": "Point"}, "type": "Feature"}, {"properties": {"adminCode1": "57", "fcode": "PPL", "lng": "44.9127", "toponymName": "Vasil\u2019yevka", "population": 0, "name": "Vasil\u2019yevka", "lat": "52.7804", "fcodeName": "populated place", "fclName": "city, village,...", "countryName": "Russia", "adminName1": "Penza", "countryId": "2017370", "fcl": "P", "geonameId": 476677, "countryCode": "RU"}, "geometry": {"coordinates": [44.9127, 52.7804], "type": "Point"}, "type": "Feature"}, {"properties": {"adminCode1": "81", "fcode": "PPLQ", "lng": "46.0594", "toponymName": "Vasil\u2019yevka", "population": 0, "name": "Vasil\u2019yevka", "lat": "54.1096", "fcodeName": "abandoned populated place", "fclName": "city, village,...", "countryName": "Russia", "adminName1": "Ulyanovsk", "countryId": "2017370", "fcl": "P", "geonameId": 7596590, "countryCode": "RU"}, "geometry": {"coordinates": [46.0594, 54.1096], "type": "Point"}, "type": "Feature"}, {"properties": {"adminCode1": "37", "fcode": "PPLQ", "lng": "42.1819", "toponymName": "Vasil\u2019yevo", "population": 0, "name": "Vasil\u2019yevo", "lat": "58.8373", "fcodeName": "abandoned populated place", "fclName": "city, village,...", "countryName": "Russia", "adminName1": "Kostroma", "countryId": "2017370", "fcl": "P", "geonameId": 7460146, "countryCode": "RU"}, "geometry": {"coordinates": [42.1819, 58.8373], "type": "Point"}, "type": "Feature"}, {"properties": {"adminCode1": "72", "fcode": "PPL", "lng": "40.7597", "toponymName": "Vasil\u2019yevka", "population": 0, "name": "Vasil\u2019yevka", "lat": "53.2053", "fcodeName": "populated place", "fclName": "city, village,...", "countryName": "Russia", "adminName1": "Tambov", "countryId": "2017370", "fcl": "P", "geonameId": 7690274, "countryCode": "RU"}, "geometry": {"coordinates": [40.7597, 53.2053], "type": "Point"}, "type": "Feature"}, {"properties": {"adminCode1": "83", "fcode": "PPL", "lng": "41.2204", "toponymName": "Vasil\u2019yevskiy", "population": 0, "name": "Vasil\u2019yevskiy", "lat": "55.2733", "fcodeName": "populated place", "fclName": "city, village,...", "countryName": "Russia", "adminName1": "Vladimir", "countryId": "2017370", "fcl": "P", "geonameId": 7690680, "countryCode": "RU"}, "geometry": {"coordinates": [41.2204, 55.2733], "type": "Point"}, "type": "Feature"}, {"properties": {"adminCode1": "62", "fcode": "PPL", "lng": "41.4575", "toponymName": "Vasil\u2019yevo", "population": 0, "name": "Vasil\u2019yevo", "lat": "54.8244", "fcodeName": "populated place", "fclName": "city, village,...", "countryName": "Russia", "adminName1": "Rjazan", "countryId": "2017370", "fcl": "P", "geonameId": 7690947, "countryCode": "RU"}, "geometry": {"coordinates": [41.4575, 54.8244], "type": "Point"}, "type": "Feature"}, {"properties": {"adminCode1": "62", "fcode": "PPL", "lng": "40.8072", "toponymName": "Vasil\u2019yevka", "population": 0, "name": "Vasil\u2019yevka", "lat": "54.0754", "fcodeName": "populated place", "fclName": "city, village,...", "countryName": "Russia", "adminName1": "Rjazan", "countryId": "2017370", "fcl": "P", "geonameId": 7688315, "countryCode": "RU"}, "geometry": {"coordinates": [40.8072, 54.0754], "type": "Point"}, "type": "Feature"}, {"properties": {"adminCode1": "46", "fcode": "PPL", "lng": "42.6974", "toponymName": "Vasil\u2019yevka", "population": 0, "name": "Vasil\u2019yevka", "lat": "54.2196", "fcodeName": "populated place", "fclName": "city, village,...", "countryName": "Russia", "adminName1": "Mordoviya", "countryId": "2017370", "fcl": "P", "geonameId": 7750903, "countryCode": "RU"}, "geometry": {"coordinates": [42.6974, 54.2196], "type": "Point"}, "type": "Feature"}, {"properties": {"adminCode1": "45", "fcode": "PPL", "lng": "47.69828", "toponymName": "Vasil\u2019yevka", "population": 0, "name": "Vasil\u2019yevka", "lat": "56.84679", "fcodeName": "populated place", "fclName": "city, village,...", "countryName": "Russia", "adminName1": "Mariy-El", "countryId": "2017370", "fcl": "P", "geonameId": 6198378, "countryCode": "RU"}, "geometry": {"coordinates": [47.69828, 56.84679], "type": "Point"}, "type": "Feature"}, {"properties": {"adminCode1": "57", "fcode": "PPL", "lng": "45.2714", "toponymName": "Vasil\u2019yevka", "population": 0, "name": "Vasil\u2019yevka", "lat": "53.28679", "fcodeName": "populated place", "fclName": "city, village,...", "countryName": "Russia", "adminName1": "Penza", "countryId": "2017370", "fcl": "P", "geonameId": 6787561, "countryCode": "RU"}, "geometry": {"coordinates": [45.2714, 53.28679], "type": "Point"}, "type": "Feature"}, {"properties": {"adminCode1": "51", "fcode": "PPL", "lng": "47.4318", "toponymName": "Vasil\u2019yevskiy", "population": 0, "name": "Vasil\u2019yevskiy", "lat": "57.9639", "fcodeName": "populated place", "fclName": "city, village,...", "countryName": "Russia", "adminName1": "Nizjnij Novgorod", "countryId": "2017370", "fcl": "P", "geonameId": 7769378, "countryCode": "RU"}, "geometry": {"coordinates": [47.4318, 57.9639], "type": "Point"}, "type": "Feature"}, {"properties": {"adminCode1": "46", "fcode": "PPL", "lng": "42.85", "toponymName": "Partsinskiy", "population": 0, "name": "Partsinskiy", "lat": "54.01667", "fcodeName": "populated place", "fclName": "city, village,...", "countryName": "Russia", "adminName1": "Mordoviya", "countryId": "2017370", "fcl": "P", "geonameId": 512463, "countryCode": "RU"}, "geometry": {"coordinates": [42.85, 54.01667], "type": "Point"}, "type": "Feature"}, {"properties": {"adminCode1": "51", "fcode": "PPL", "lng": "44.94163", "toponymName": "Malaya Vasil\u2019yevka", "population": 0, "name": "Malaya Vasil\u2019yevka", "lat": "54.97097", "fcodeName": "populated place", "fclName": "city, village,...", "countryName": "Russia", "adminName1": "Nizjnij Novgorod", "countryId": "2017370", "fcl": "P", "geonameId": 6846198, "countryCode": "RU"}, "geometry": {"coordinates": [44.94163, 54.97097], "type": "Point"}, "type": "Feature"}, {"properties": {"adminCode1": "21", "fcode": "PPL", "lng": "41.3324", "toponymName": "Vasilevo", "population": 0, "name": "Vasilevo", "lat": "57.17881", "fcodeName": "populated place", "fclName": "city, village,...", "countryName": "Russia", "adminName1": "Ivanovo", "countryId": "2017370", "fcl": "P", "geonameId": 476607, "countryCode": "RU"}, "geometry": {"coordinates": [41.3324, 57.17881], "type": "Point"}, "type": "Feature"}, {"properties": {"adminCode1": "46", "fcode": "PPLQ", "lng": "44.0613", "toponymName": "Vasil\u2019yevka", "population": 0, "name": "Vasil\u2019yevka", "lat": "54.58624", "fcodeName": "abandoned populated place", "fclName": "city, village,...", "countryName": "Russia", "adminName1": "Mordoviya", "countryId": "2017370", "fcl": "P", "geonameId": 6846104, "countryCode": "RU"}, "geometry": {"coordinates": [44.0613, 54.58624], "type": "Point"}, "type": "Feature"}, {"properties": {"adminCode1": "85", "fcode": "PPL", "lng": "40.95", "toponymName": "Vasil\u2019yevskoye", "population": 0, "name": "Vasil\u2019yevskoye", "lat": "59.4", "fcodeName": "populated place", "fclName": "city, village,...", "countryName": "Russia", "adminName1": "Vologda", "countryId": "2017370", "fcl": "P", "geonameId": 476515, "countryCode": "RU"}, "geometry": {"coordinates": [40.95, 59.4], "type": "Point"}, "type": "Feature"}, {"properties": {"adminCode1": "85", "fcode": "PPL", "lng": "40.08333", "toponymName": "Vasil\u2019yevskoye", "population": 0, "name": "Vasil\u2019yevskoye", "lat": "59.11667", "fcodeName": "populated place", "fclName": "city, village,...", "countryName": "Russia", "adminName1": "Vologda", "countryId": "2017370", "fcl": "P", "geonameId": 476516, "countryCode": "RU"}, "geometry": {"coordinates": [40.08333, 59.11667], "type": "Point"}, "type": "Feature"}, {"properties": {"adminCode1": "37", "fcode": "PPL", "lng": "44.76802", "toponymName": "Vasil\u2019yevskoye", "population": 0, "name": "Vasil\u2019yevskoye", "lat": "58.4528", "fcodeName": "populated place", "fclName": "city, village,...", "countryName": "Russia", "adminName1": "Kostroma", "countryId": "2017370", "fcl": "P", "geonameId": 476518, "countryCode": "RU"}, "geometry": {"coordinates": [44.76802, 58.4528], "type": "Point"}, "type": "Feature"}, {"properties": {"adminCode1": "21", "fcode": "PPL", "lng": "40.73333", "toponymName": "Vasil\u2019yevskoye", "population": 0, "name": "Vasil\u2019yevskoye", "lat": "57.28333", "fcodeName": "populated place", "fclName": "city, village,...", "countryName": "Russia", "adminName1": "Ivanovo", "countryId": "2017370", "fcl": "P", "geonameId": 476522, "countryCode": "RU"}, "geometry": {"coordinates": [40.73333, 57.28333], "type": "Point"}, "type": "Feature"}, {"properties": {"adminCode1": "21", "fcode": "PPL", "lng": "41.26153", "toponymName": "Vasil\u2019yevskoye", "population": 0, "name": "Vasil\u2019yevskoye", "lat": "57.02864", "fcodeName": "populated place", "fclName": "city, village,...", "countryName": "Russia", "adminName1": "Ivanovo", "countryId": "2017370", "fcl": "P", "geonameId": 476524, "countryCode": "RU"}, "geometry": {"coordinates": [41.26153, 57.02864], "type": "Point"}, "type": "Feature"}, {"properties": {"adminCode1": "83", "fcode": "PPL", "lng": "41.98333", "toponymName": "Vasil\u2019yevskoye", "population": 0, "name": "Vasil\u2019yevskoye", "lat": "55.81667", "fcodeName": "populated place", "fclName": "city, village,...", "countryName": "Russia", "adminName1": "Vladimir", "countryId": "2017370", "fcl": "P", "geonameId": 476534, "countryCode": "RU"}, "geometry": {"coordinates": [41.98333, 55.81667], "type": "Point"}, "type": "Feature"}, {"properties": {"adminCode1": "85", "fcode": "PPL", "lng": "41.41667", "toponymName": "Vasil\u2019yevskaya", "population": 0, "name": "Vasil\u2019yevskaya", "lat": "59.88333", "fcodeName": "populated place", "fclName": "city, village,...", "countryName": "Russia", "adminName1": "Vologda", "countryId": "2017370", "fcl": "P", "geonameId": 476581, "countryCode": "RU"}, "geometry": {"coordinates": [41.41667, 59.88333], "type": "Point"}, "type": "Feature"}, {"properties": {"adminCode1": "37", "fcode": "PPL", "lng": "42.11823", "toponymName": "Vasil\u2019yevo", "population": 0, "name": "Vasil\u2019yevo", "lat": "59.29612", "fcodeName": "populated place", "fclName": "city, village,...", "countryName": "Russia", "adminName1": "Kostroma", "countryId": "2017370", "fcl": "P", "geonameId": 476602, "countryCode": "RU"}, "geometry": {"coordinates": [42.11823, 59.29612], "type": "Point"}, "type": "Feature"}, {"properties": {"adminCode1": "83", "fcode": "PPL", "lng": "41.15632", "toponymName": "Vasil\u2019yevo", "population": 0, "name": "Vasil\u2019yevo", "lat": "56.04929", "fcodeName": "populated place", "fclName": "city, village,...", "countryName": "Russia", "adminName1": "Vladimir", "countryId": "2017370", "fcl": "P", "geonameId": 476613, "countryCode": "RU"}, "geometry": {"coordinates": [41.15632, 56.04929], "type": "Point"}, "type": "Feature"}, {"properties": {"adminCode1": "83", "fcode": "PPL", "lng": "41.2", "toponymName": "Vasil\u2019yevo", "population": 0, "name": "Vasil\u2019yevo", "lat": "55.73333", "fcodeName": "populated place", "fclName": "city, village,...", "countryName": "Russia", "adminName1": "Vladimir", "countryId": "2017370", "fcl": "P", "geonameId": 476617, "countryCode": "RU"}, "geometry": {"coordinates": [41.2, 55.73333], "type": "Point"}, "type": "Feature"}, {"properties": {"adminCode1": "62", "fcode": "PPL", "lng": "40.34772", "toponymName": "Vasil\u2019yevo", "population": 0, "name": "Vasil\u2019yevo", "lat": "55.24362", "fcodeName": "populated place", "fclName": "city, village,...", "countryName": "Russia", "adminName1": "Rjazan", "countryId": "2017370", "fcl": "P", "geonameId": 476621, "countryCode": "RU"}, "geometry": {"coordinates": [40.34772, 55.24362], "type": "Point"}, "type": "Feature"}, {"properties": {"adminCode1": "46", "fcode": "PPL", "lng": "43.86528", "toponymName": "Vasil\u2019yevka", "population": 0, "name": "Vasil\u2019yevka", "lat": "53.92917", "fcodeName": "populated place", "fclName": "city, village,...", "countryName": "Russia", "adminName1": "Mordoviya", "countryId": "2017370", "fcl": "P", "geonameId": 476648, "countryCode": "RU"}, "geometry": {"coordinates": [43.86528, 53.92917], "type": "Point"}, "type": "Feature"}, {"properties": {"adminCode1": "72", "fcode": "PPL", "lng": "41.00754", "toponymName": "Vasil\u2019yevka", "population": 0, "name": "Vasil\u2019yevka", "lat": "53.28928", "fcodeName": "populated place", "fclName": "city, village,...", "countryName": "Russia", "adminName1": "Tambov", "countryId": "2017370", "fcl": "P", "geonameId": 476663, "countryCode": "RU"}, "geometry": {"coordinates": [41.00754, 53.28928], "type": "Point"}, "type": "Feature"}, {"properties": {"adminCode1": "57", "fcode": "PPL", "lng": "43.60379", "toponymName": "Vasil\u2019yevka", "population": 0, "name": "Vasil\u2019yevka", "lat": "52.79015", "fcodeName": "populated place", "fclName": "city, village,...", "countryName": "Russia", "adminName1": "Penza", "countryId": "2017370", "fcl": "P", "geonameId": 476674, "countryCode": "RU"}, "geometry": {"coordinates": [43.60379, 52.79015], "type": "Point"}, "type": "Feature"}, {"properties": {"adminCode1": "57", "fcode": "PPL", "lng": "43.73333", "toponymName": "Vasil\u2019yevka", "population": 0, "name": "Vasil\u2019yevka", "lat": "52.76667", "fcodeName": "populated place", "fclName": "city, village,...", "countryName": "Russia", "adminName1": "Penza", "countryId": "2017370", "fcl": "P", "geonameId": 476679, "countryCode": "RU"}, "geometry": {"coordinates": [43.73333, 52.76667], "type": "Point"}, "type": "Feature"}, {"properties": {"adminCode1": "72", "fcode": "PPL", "lng": "42.68745", "toponymName": "Vasil\u2019yevka", "population": 0, "name": "Vasil\u2019yevka", "lat": "52.37431", "fcodeName": "populated place", "fclName": "city, village,...", "countryName": "Russia", "adminName1": "Tambov", "countryId": "2017370", "fcl": "P", "geonameId": 476688, "countryCode": "RU"}, "geometry": {"coordinates": [42.68745, 52.37431], "type": "Point"}, "type": "Feature"}, {"properties": {"adminCode1": "88", "fcode": "PPL", "lng": "40.4292", "toponymName": "Vasil\u2019tsevo", "population": 0, "name": "Vasil\u2019tsevo", "lat": "58.14238", "fcodeName": "populated place", "fclName": "city, village,...", "countryName": "Russia", "adminName1": "Jaroslavl", "countryId": "2017370", "fcl": "P", "geonameId": 476728, "countryCode": "RU"}, "geometry": {"coordinates": [40.4292, 58.14238], "type": "Point"}, "type": "Feature"}, {"properties": {"adminCode1": "37", "fcode": "PPL", "lng": "40.63333", "toponymName": "Vasil\u2019kovo", "population": 0, "name": "Vasil\u2019kovo", "lat": "57.33333", "fcodeName": "populated place", "fclName": "city, village,...", "countryName": "Russia", "adminName1": "Kostroma", "countryId": "2017370", "fcl": "P", "geonameId": 476743, "countryCode": "RU"}, "geometry": {"coordinates": [40.63333, 57.33333], "type": "Point"}, "type": "Feature"}, {"properties": {"adminCode1": "21", "fcode": "PPL", "lng": "41.60996", "toponymName": "Vasil\u2019kovo", "population": 0, "name": "Vasil\u2019kovo", "lat": "57.30166", "fcodeName": "populated place", "fclName": "city, village,...", "countryName": "Russia", "adminName1": "Ivanovo", "countryId": "2017370", "fcl": "P", "geonameId": 476744, "countryCode": "RU"}, "geometry": {"coordinates": [41.60996, 57.30166], "type": "Point"}, "type": "Feature"}, {"properties": {"adminCode1": "21", "fcode": "PPL", "lng": "43.03306", "toponymName": "Vasil\u2019kovo", "population": 0, "name": "Vasil\u2019kovo", "lat": "57.0225", "fcodeName": "populated place", "fclName": "city, village,...", "countryName": "Russia", "adminName1": "Ivanovo", "countryId": "2017370", "fcl": "P", "geonameId": 476747, "countryCode": "RU"}, "geometry": {"coordinates": [43.03306, 57.0225], "type": "Point"}, "type": "Feature"}, {"properties": {"adminCode1": "88", "fcode": "PPL", "lng": "40.44091", "toponymName": "Vasil\u2019yevskoye", "population": 0, "name": "Vasil\u2019yevskoye", "lat": "58.42641", "fcodeName": "populated place", "fclName": "city, village,...", "countryName": "Russia", "adminName1": "Jaroslavl", "countryId": "2017370", "fcl": "P", "geonameId": 6312506, "countryCode": "RU"}, "geometry": {"coordinates": [40.44091, 58.42641], "type": "Point"}, "type": "Feature"}, {"properties": {"adminCode1": "88", "fcode": "PPL", "lng": "40.64474", "toponymName": "Vasil\u2019kovo", "population": 0, "name": "Vasil\u2019kovo", "lat": "58.10043", "fcodeName": "populated place", "fclName": "city, village,...", "countryName": "Russia", "adminName1": "Jaroslavl", "countryId": "2017370", "fcl": "P", "geonameId": 6312776, "countryCode": "RU"}, "geometry": {"coordinates": [40.64474, 58.10043], "type": "Point"}, "type": "Feature"}, {"properties": {"adminCode1": "51", "fcode": "PPL", "lng": "44.09461", "toponymName": "Vasil\u2019kovo", "population": 0, "name": "Vasil\u2019kovo", "lat": "56.53762", "fcodeName": "populated place", "fclName": "city, village,...", "countryName": "Russia", "adminName1": "Nizjnij Novgorod", "countryId": "2017370", "fcl": "P", "geonameId": 828474, "countryCode": "RU"}, "geometry": {"coordinates": [44.09461, 56.53762], "type": "Point"}, "type": "Feature"}, {"properties": {"adminCode1": "51", "fcode": "PPL", "lng": "43.10703", "toponymName": "Vasil\u2019kovo", "population": 0, "name": "Vasil\u2019kovo", "lat": "56.73673", "fcodeName": "populated place", "fclName": "city, village,...", "countryName": "Russia", "adminName1": "Nizjnij Novgorod", "countryId": "2017370", "fcl": "P", "geonameId": 6608499, "countryCode": "RU"}, "geometry": {"coordinates": [43.10703, 56.73673], "type": "Point"}, "type": "Feature"}, {"properties": {"adminCode1": "51", "fcode": "PPL", "lng": "43.46011", "toponymName": "Vasil\u2019yevskoye", "population": 0, "name": "Vasil\u2019yevskoye", "lat": "56.75181", "fcodeName": "populated place", "fclName": "city, village,...", "countryName": "Russia", "adminName1": "Nizjnij Novgorod", "countryId": "2017370", "fcl": "P", "geonameId": 6608579, "countryCode": "RU"}, "geometry": {"coordinates": [43.46011, 56.75181], "type": "Point"}, "type": "Feature"}, {"properties": {"adminCode1": "21", "fcode": "PPL", "lng": "43.07155", "toponymName": "Vasil\u2019kovo", "population": 0, "name": "Vasil\u2019kovo", "lat": "57.0198", "fcodeName": "populated place", "fclName": "city, village,...", "countryName": "Russia", "adminName1": "Ivanovo", "countryId": "2017370", "fcl": "P", "geonameId": 6609383, "countryCode": "RU"}, "geometry": {"coordinates": [43.07155, 57.0198], "type": "Point"}, "type": "Feature"}, {"properties": {"adminCode1": "85", "fcode": "PPL", "lng": "41.109", "toponymName": "Vasil\u2019yevka", "population": 0, "name": "Vasil\u2019yevka", "lat": "58.89393", "fcodeName": "populated place", "fclName": "city, village,...", "countryName": "Russia", "adminName1": "Vologda", "countryId": "2017370", "fcl": "P", "geonameId": 6609905, "countryCode": "RU"}, "geometry": {"coordinates": [41.109, 58.89393], "type": "Point"}, "type": "Feature"}, {"properties": {"adminCode1": "83", "fcode": "PPL", "lng": "42.57291", "toponymName": "Vasil\u2019chikovo", "population": 0, "name": "Vasil\u2019chikovo", "lat": "56.09996", "fcodeName": "populated place", "fclName": "city, village,...", "countryName": "Russia", "adminName1": "Vladimir", "countryId": "2017370", "fcl": "P", "geonameId": 6610057, "countryCode": "RU"}, "geometry": {"coordinates": [42.57291, 56.09996], "type": "Point"}, "type": "Feature"}, {"properties": {"adminCode1": "46", "fcode": "PPL", "lng": "43.86888", "toponymName": "Vasil\u2019yevka", "population": 0, "name": "Vasil\u2019yevka", "lat": "54.19721", "fcodeName": "populated place", "fclName": "city, village,...", "countryName": "Russia", "adminName1": "Mordoviya", "countryId": "2017370", "fcl": "P", "geonameId": 6654226, "countryCode": "RU"}, "geometry": {"coordinates": [43.86888, 54.19721], "type": "Point"}, "type": "Feature"}, {"properties": {"adminCode1": "88", "fcode": "PPL", "lng": "40.01062", "toponymName": "Vasil\u2019yevo", "population": 0, "name": "Vasil\u2019yevo", "lat": "57.44229", "fcodeName": "populated place", "fclName": "city, village,...", "countryName": "Russia", "adminName1": "Jaroslavl", "countryId": "2017370", "fcl": "P", "geonameId": 6641001, "countryCode": "RU"}, "geometry": {"coordinates": [40.01062, 57.44229], "type": "Point"}, "type": "Feature"}, {"properties": {"adminCode1": "88", "fcode": "PPL", "lng": "40.45722", "toponymName": "Vasil\u2019yevskoye", "population": 0, "name": "Vasil\u2019yevskoye", "lat": "57.58823", "fcodeName": "populated place", "fclName": "city, village,...", "countryName": "Russia", "adminName1": "Jaroslavl", "countryId": "2017370", "fcl": "P", "geonameId": 6641916, "countryCode": "RU"}, "geometry": {"coordinates": [40.45722, 57.58823], "type": "Point"}, "type": "Feature"}, {"properties": {"adminCode1": "37", "fcode": "PPL", "lng": "41.36209", "toponymName": "Vasil\u2019kovo", "population": 0, "name": "Vasil\u2019kovo", "lat": "57.56978", "fcodeName": "populated place", "fclName": "city, village,...", "countryName": "Russia", "adminName1": "Kostroma", "countryId": "2017370", "fcl": "P", "geonameId": 6283091, "countryCode": "RU"}, "geometry": {"coordinates": [41.36209, 57.56978], "type": "Point"}, "type": "Feature"}, {"properties": {"adminCode1": "37", "fcode": "PPL", "lng": "41.10054", "toponymName": "Vasil\u2019yevskoye", "population": 0, "name": "Vasil\u2019yevskoye", "lat": "57.69699", "fcodeName": "populated place", "fclName": "city, village,...", "countryName": "Russia", "adminName1": "Kostroma", "countryId": "2017370", "fcl": "P", "geonameId": 6283149, "countryCode": "RU"}, "geometry": {"coordinates": [41.10054, 57.69699], "type": "Point"}, "type": "Feature"}, {"properties": {"adminCode1": "21", "fcode": "PPL", "lng": "41.22194", "toponymName": "Vasil\u2019yevskoye", "population": 0, "name": "Vasil\u2019yevskoye", "lat": "57.39219", "fcodeName": "populated place", "fclName": "city, village,...", "countryName": "Russia", "adminName1": "Ivanovo", "countryId": "2017370", "fcl": "P", "geonameId": 6283383, "countryCode": "RU"}, "geometry": {"coordinates": [41.22194, 57.39219], "type": "Point"}, "type": "Feature"}, {"properties": {"adminCode1": "51", "fcode": "PPL", "lng": "44.26762", "toponymName": "Vasil\u2019yevo", "population": 0, "name": "Vasil\u2019yevo", "lat": "56.8716", "fcodeName": "populated place", "fclName": "city, village,...", "countryName": "Russia", "adminName1": "Nizjnij Novgorod", "countryId": "2017370", "fcl": "P", "geonameId": 6419114, "countryCode": "RU"}, "geometry": {"coordinates": [44.26762, 56.8716], "type": "Point"}, "type": "Feature"}, {"properties": {"adminCode1": "83", "fcode": "PPL", "lng": "41.95368", "toponymName": "Vasil\u2019ki", "population": 0, "name": "Vasil\u2019ki", "lat": "56.10355", "fcodeName": "populated place", "fclName": "city, village,...", "countryName": "Russia", "adminName1": "Vladimir", "countryId": "2017370", "fcl": "P", "geonameId": 6422216, "countryCode": "RU"}, "geometry": {"coordinates": [41.95368, 56.10355], "type": "Point"}, "type": "Feature"}, {"properties": {"adminCode1": "21", "fcode": "PPL", "lng": "41.24594", "toponymName": "Vasil\u2019kovo", "population": 0, "name": "Vasil\u2019kovo", "lat": "56.49036", "fcodeName": "populated place", "fclName": "city, village,...", "countryName": "Russia", "adminName1": "Ivanovo", "countryId": "2017370", "fcl": "P", "geonameId": 6422634, "countryCode": "RU"}, "geometry": {"coordinates": [41.24594, 56.49036], "type": "Point"}, "type": "Feature"}, {"properties": {"adminCode1": "21", "fcode": "PPL", "lng": "42.86955", "toponymName": "Vasil\u2019yevka", "population": 0, "name": "Vasil\u2019yevka", "lat": "57.33425", "fcodeName": "populated place", "fclName": "city, village,...", "countryName": "Russia", "adminName1": "Ivanovo", "countryId": "2017370", "fcl": "P", "geonameId": 6423121, "countryCode": "RU"}, "geometry": {"coordinates": [42.86955, 57.33425], "type": "Point"}, "type": "Feature"}, {"properties": {"adminCode1": "37", "fcode": "PPL", "lng": "42.14527", "toponymName": "Vasil\u2019yevo", "population": 0, "name": "Vasil\u2019yevo", "lat": "57.89102", "fcodeName": "populated place", "fclName": "city, village,...", "countryName": "Russia", "adminName1": "Kostroma", "countryId": "2017370", "fcl": "P", "geonameId": 6423294, "countryCode": "RU"}, "geometry": {"coordinates": [42.14527, 57.89102], "type": "Point"}, "type": "Feature"}, {"properties": {"adminCode1": "85", "fcode": "PPLQ", "lng": "40.1325", "toponymName": "Nizhneye Vasil\u2019yevskoye", "population": 0, "name": "Nizhneye Vasil\u2019yevskoye", "lat": "58.97556", "fcodeName": "abandoned populated place", "fclName": "city, village,...", "countryName": "Russia", "adminName1": "Vologda", "countryId": "2017370", "fcl": "P", "geonameId": 6313348, "countryCode": "RU"}, "geometry": {"coordinates": [40.1325, 58.97556], "type": "Point"}, "type": "Feature"}], "type": "FeatureCollection"}