{"features": [{"properties": {"adminCode1": "52", "fcode": "PPL", "lng": "32.51647", "toponymName": "Kresttsy", "population": 9737, "name": "Kresttsy", "lat": "58.2452", "fcodeName": "populated place", "fclName": "city, village,...", "countryName": "Russia", "adminName1": "Novgorod", "countryId": "2017370", "fcl": "P", "geonameId": 541116, "countryCode": "RU"}, "geometry": {"coordinates": [32.51647, 58.2452], "type": "Point"}, "type": "Feature"}, {"properties": {"adminCode1": "42", "fcode": "PPL", "lng": "32.53669", "toponymName": "Kresttsy", "population": 0, "name": "Kresttsy", "lat": "59.17925", "fcodeName": "populated place", "fclName": "city, village,...", "countryName": "Russia", "adminName1": "Leningrad", "countryId": "2017370", "fcl": "P", "geonameId": 541112, "countryCode": "RU"}, "geometry": {"coordinates": [32.53669, 59.17925], "type": "Point"}, "type": "Feature"}, {"properties": {"adminCode1": "88", "fcode": "PPL", "lng": "38.97379", "toponymName": "Kresttsy", "population": 0, "name": "Kresttsy", "lat": "58.39236", "fcodeName": "populated place", "fclName": "city, village,...", "countryName": "Russia", "adminName1": "Jaroslavl", "countryId": "2017370", "fcl": "P", "geonameId": 541115, "countryCode": "RU"}, "geometry": {"coordinates": [38.97379, 58.39236], "type": "Point"}, "type": "Feature"}, {"properties": {"adminCode1": "52", "fcode": "PPL", "lng": "35.083", "toponymName": "Kresttsy", "population": 0, "name": "Kresttsy", "lat": "58.83575", "fcodeName": "populated place", "fclName": "city, village,...", "countryName": "Russia", "adminName1": "Novgorod", "countryId": "2017370", "fcl": "P", "geonameId": 541113, "countryCode": "RU"}, "geometry": {"coordinates": [35.083, 58.83575], "type": "Point"}, "type": "Feature"}, {"properties": {"adminCode1": "85", "fcode": "PPL", "lng": "36.24852", "toponymName": "Kresttsy", "population": 0, "name": "Kresttsy", "lat": "58.55174", "fcodeName": "populated place", "fclName": "city, village,...", "countryName": "Russia", "adminName1": "Vologda", "countryId": "2017370", "fcl": "P", "geonameId": 541114, "countryCode": "RU"}, "geometry": {"coordinates": [36.24852, 58.55174], "type": "Point"}, "type": "Feature"}], "type": "FeatureCollection"}